{
    "items": [
        {
            "id" : "1",
            "name": "คลังลาดกระบัง",
            "lat": 13.721253101602608, 
            "lng": 100.82835651247966
        },
        {
            "id" : "2",
            "name": "คลังขนมปังร่มเกล้า",
            "lat": 13.740354400536306,
            "lng": 100.75955427731634
        },
        {
            "id" : "3",
            "name": "คลังสำโรง",
            "lat": 13.652414298422585,
            "lng": 100.59248126646743
        },
        {
            "id" : "4",
            "name": "คลังขนมปังโชคชัย",
            "lat": 13.796166637451323,
            "lng": 100.56737171806154
        },
        {
            "id" : "5",
            "name": "คลังบางบัวทอง",
            "lat": 13.975600931156112,
            "lng": 100.39422996035825
        },
        {
            "id" : "6",
            "name": "คลังมหาชัย",
            "lat": 13.508293504298386,
            "lng": 100.1455541194054
        }
    ]
}